{"type": "FeatureCollection", "features": [{"type": "Feature", "properties": {"departure": "ABE", "City name_x": "Allentown", "Country name_y": "United States", "mean_arr_delay": 7.065155807365439}, "geometry": {"type": "Point", "coordinates": [-75.44080353, 40.65209961]}}, {"type": "Feature", "properties": {"departure": "ABI", "City name_x": "Abilene", "Country name_y": "United States", "mean_arr_delay": 2.7938144329896906}, "geometry": {"type": "Point", "coordinates": [-99.68190002, 32.41130066]}}, {"type": "Feature", "properties": {"departure": "ABQ", "City name_x": "Albuquerque", "Country name_y": "United States", "mean_arr_delay": -2.4446583253128007}, "geometry": {"type": "Point", "coordinates": [-106.609001, 35.040199]}}, {"type": "Feature", "properties": {"departure": "ABR", "City name_x": "Aberdeen", "Country name_y": "United States", "mean_arr_delay": 9.96774193548387}, "geometry": {"type": "Point", "coordinates": [-98.42179871, 45.44910049]}}, {"type": "Feature", "properties": {"departure": "ABY", "City name_x": "Albany", "Country name_y": "United States", "mean_arr_delay": -7.011111111111111}, "geometry": {"type": "Point", "coordinates": [-84.19450378, 31.53549957]}}, {"type": "Feature", "properties": {"departure": "ACK", "City name_x": "Nantucket", "Country name_y": "United States", "mean_arr_delay": -5.5}, "geometry": {"type": "Point", "coordinates": [-70.06020355, 41.25310135]}}, {"type": "Feature", "properties": {"departure": "ACT", "City name_x": "Waco", "Country name_y": "United States", "mean_arr_delay": -3.6373626373626373}, "geometry": {"type": "Point", "coordinates": [-97.23049927, 31.61129951]}}, {"type": "Feature", "properties": {"departure": "ACV", "City name_x": "Arcata", "Country name_y": "United States", "mean_arr_delay": -5.235294117647059}, "geometry": {"type": "Point", "coordinates": [-124.109, 40.978101]}}, {"type": "Feature", "properties": {"departure": "ACY", "City name_x": "Atlantic City", "Country name_y": "United States", "mean_arr_delay": 1.7176470588235293}, "geometry": {"type": "Point", "coordinates": [-74.57720184, 39.45759964]}}, {"type": "Feature", "properties": {"departure": "ADK", "City name_x": "Adak Island", "Country name_y": "United States", "mean_arr_delay": 30.666666666666668}, "geometry": {"type": "Point", "coordinates": [-176.6459961, 51.87799835]}}, {"type": "Feature", "properties": {"departure": "ADQ", "City name_x": "Kodiak", "Country name_y": "United States", "mean_arr_delay": -5.837209302325581}, "geometry": {"type": "Point", "coordinates": [-152.4940033, 57.75]}}, {"type": "Feature", "properties": {"departure": "AEX", "City name_x": "Alexandria", "Country name_y": "United States", "mean_arr_delay": -3.416326530612245}, "geometry": {"type": "Point", "coordinates": [-92.54979706, 31.32740021]}}, {"type": "Feature", "properties": {"departure": "AGS", "City name_x": "Augusta", "Country name_y": "United States", "mean_arr_delay": 1.2646239554317549}, "geometry": {"type": "Point", "coordinates": [-81.96450043, 33.36989975]}}, {"type": "Feature", "properties": {"departure": "AKN", "City name_x": "King Salmon", "Country name_y": "United States", "mean_arr_delay": 11.433333333333334}, "geometry": {"type": "Point", "coordinates": [-156.6490021, 58.67679977]}}, {"type": "Feature", "properties": {"departure": "ALB", "City name_x": "Albany", "Country name_y": "United States", "mean_arr_delay": -2.4388059701492537}, "geometry": {"type": "Point", "coordinates": [-73.80169678, 42.74829865]}}, {"type": "Feature", "properties": {"departure": "ALO", "City name_x": "Waterloo", "Country name_y": "United States", "mean_arr_delay": -6.642857142857143}, "geometry": {"type": "Point", "coordinates": [-92.40029907, 42.55709839]}}, {"type": "Feature", "properties": {"departure": "ALS", "City name_x": "Alamosa", "Country name_y": "United States", "mean_arr_delay": 21.830188679245282}, "geometry": {"type": "Point", "coordinates": [-105.866997, 37.434898]}}, {"type": "Feature", "properties": {"departure": "ALW", "City name_x": "Walla Walla", "Country name_y": "United States", "mean_arr_delay": 1.3709677419354838}, "geometry": {"type": "Point", "coordinates": [-118.288002, 46.09489822]}}, {"type": "Feature", "properties": {"departure": "AMA", "City name_x": "Amarillo", "Country name_y": "United States", "mean_arr_delay": 2.978328173374613}, "geometry": {"type": "Point", "coordinates": [-101.706001, 35.219398]}}, {"type": "Feature", "properties": {"departure": "ANC", "City name_x": "Anchorage", "Country name_y": "United States", "mean_arr_delay": -1.0347284060552093}, "geometry": {"type": "Point", "coordinates": [-149.9960022, 61.17440033]}}, {"type": "Feature", "properties": {"departure": "APN", "City name_x": "Alpena", "Country name_y": "United States", "mean_arr_delay": 5.0}, "geometry": {"type": "Point", "coordinates": [-83.56030273, 45.07809829999999]}}, {"type": "Feature", "properties": {"departure": "ART", "City name_x": "Watertown", "Country name_y": "United States", "mean_arr_delay": -2.0172413793103448}, "geometry": {"type": "Point", "coordinates": [-76.021698, 43.991901399999996]}}, {"type": "Feature", "properties": {"departure": "ASE", "City name_x": "Aspen", "Country name_y": "United States", "mean_arr_delay": 23.266778523489933}, "geometry": {"type": "Point", "coordinates": [-106.8690033, 39.22320175]}}, {"type": "Feature", "properties": {"departure": "ATL", "City name_x": "Atlanta", "Country name_y": "United States", "mean_arr_delay": -0.06421184717234217}, "geometry": {"type": "Point", "coordinates": [-84.428101, 33.6367]}}, {"type": "Feature", "properties": {"departure": "ATW", "City name_x": "Appleton", "Country name_y": "United States", "mean_arr_delay": -0.8135593220338984}, "geometry": {"type": "Point", "coordinates": [-88.51909637, 44.258098600000004]}}, {"type": "Feature", "properties": {"departure": "ATY", "City name_x": "Watertown", "Country name_y": "United States", "mean_arr_delay": -7.962264150943396}, "geometry": {"type": "Point", "coordinates": [-97.15470123, 44.91400146]}}, {"type": "Feature", "properties": {"departure": "AUS", "City name_x": NaN, "Country name_y": NaN, "mean_arr_delay": -1.282496307237814}, "geometry": {"type": "Point", "coordinates": [NaN, NaN]}}, {"type": "Feature", "properties": {"departure": "AVL", "City name_x": "Fletcher", "Country name_y": "United States", "mean_arr_delay": -4.486910994764398}, "geometry": {"type": "Point", "coordinates": [-82.54180145, 35.43619919]}}, {"type": "Feature", "properties": {"departure": "AVP", "City name_x": "Wilkes-Barre", "Country name_y": "United States", "mean_arr_delay": -7.047337278106509}, "geometry": {"type": "Point", "coordinates": [-75.7233963, 41.33850098]}}, {"type": "Feature", "properties": {"departure": "AZA", "City name_x": NaN, "Country name_y": NaN, "mean_arr_delay": 11.723830734966592}, "geometry": {"type": "Point", "coordinates": [NaN, NaN]}}, {"type": "Feature", "properties": {"departure": "AZO", "City name_x": "Kalamazoo", "Country name_y": "United States", "mean_arr_delay": 8.631578947368421}, "geometry": {"type": "Point", "coordinates": [-85.55210114, 42.23490143]}}, {"type": "Feature", "properties": {"departure": "BDL", "City name_x": "Windsor Locks", "Country name_y": "United States", "mean_arr_delay": -0.6977578475336322}, "geometry": {"type": "Point", "coordinates": [-72.68319702, 41.93889999]}}, {"type": "Feature", "properties": {"departure": "BET", "City name_x": "Bethel", "Country name_y": "United States", "mean_arr_delay": -1.4680851063829787}, "geometry": {"type": "Point", "coordinates": [-161.8379974, 60.77980042]}}, {"type": "Feature", "properties": {"departure": "BFF", "City name_x": "Scottsbluff", "Country name_y": "United States", "mean_arr_delay": 8.735849056603774}, "geometry": {"type": "Point", "coordinates": [-103.5960007, 41.87400055]}}, {"type": "Feature", "properties": {"departure": "BFL", "City name_x": "Bakersfield", "Country name_y": "United States", "mean_arr_delay": 7.162921348314606}, "geometry": {"type": "Point", "coordinates": [-119.0569992, 35.43360138]}}, {"type": "Feature", "properties": {"departure": "BGM", "City name_x": "Endicott", "Country name_y": "United States", "mean_arr_delay": 13.67741935483871}, "geometry": {"type": "Point", "coordinates": [-75.97979736, 42.20869827]}}, {"type": "Feature", "properties": {"departure": "BGR", "City name_x": "Bangor", "Country name_y": "United States", "mean_arr_delay": -8.45320197044335}, "geometry": {"type": "Point", "coordinates": [-68.82810211, 44.80739975]}}, {"type": "Feature", "properties": {"departure": "BHM", "City name_x": "Birmingham", "Country name_y": "United States", "mean_arr_delay": -0.08134490238611713}, "geometry": {"type": "Point", "coordinates": [-86.75350189, 33.56290054]}}, {"type": "Feature", "properties": {"departure": "BIL", "City name_x": "Billings", "Country name_y": "United States", "mean_arr_delay": 4.22707423580786}, "geometry": {"type": "Point", "coordinates": [-108.5429993, 45.80770111]}}, {"type": "Feature", "properties": {"departure": "BIS", "City name_x": "Bismarck", "Country name_y": "United States", "mean_arr_delay": 5.355882352941176}, "geometry": {"type": "Point", "coordinates": [-100.7460022, 46.77270126]}}, {"type": "Feature", "properties": {"departure": "BJI", "City name_x": "Bemidji", "Country name_y": "United States", "mean_arr_delay": -4.467741935483871}, "geometry": {"type": "Point", "coordinates": [-94.93370056, 47.50939941]}}, {"type": "Feature", "properties": {"departure": "BLI", "City name_x": "Bellingham", "Country name_y": "United States", "mean_arr_delay": -0.7747747747747747}, "geometry": {"type": "Point", "coordinates": [-122.538002, 48.792800899999996]}}, {"type": "Feature", "properties": {"departure": "BLV", "City name_x": "Belleville", "Country name_y": "United States", "mean_arr_delay": -4.875}, "geometry": {"type": "Point", "coordinates": [-89.835197, 38.5452]}}, {"type": "Feature", "properties": {"departure": "BMI", "City name_x": "Bloomington-Normal", "Country name_y": "United States", "mean_arr_delay": 0.17159763313609466}, "geometry": {"type": "Point", "coordinates": [-88.91590118, 40.47710037]}}, {"type": "Feature", "properties": {"departure": "BNA", "City name_x": "Nashville", "Country name_y": "United States", "mean_arr_delay": -0.6626559714795008}, "geometry": {"type": "Point", "coordinates": [-86.67819977, 36.12450027]}}, {"type": "Feature", "properties": {"departure": "BOI", "City name_x": "Boise", "Country name_y": "United States", "mean_arr_delay": -0.8660953401178361}, "geometry": {"type": "Point", "coordinates": [-116.223, 43.5644]}}, {"type": "Feature", "properties": {"departure": "BOS", "City name_x": "Boston", "Country name_y": "United States", "mean_arr_delay": -2.8153391083879145}, "geometry": {"type": "Point", "coordinates": [-71.00520325, 42.36429977]}}, {"type": "Feature", "properties": {"departure": "BPT", "City name_x": "Beaumont", "Country name_y": "United States", "mean_arr_delay": 3.3076923076923075}, "geometry": {"type": "Point", "coordinates": [-94.02069855, 29.95079994]}}, {"type": "Feature", "properties": {"departure": "BQK", "City name_x": "Brunswick", "Country name_y": "United States", "mean_arr_delay": -6.322222222222222}, "geometry": {"type": "Point", "coordinates": [-81.46649933, 31.25880051]}}, {"type": "Feature", "properties": {"departure": "BRD", "City name_x": "Brainerd", "Country name_y": "United States", "mean_arr_delay": -1.6226415094339623}, "geometry": {"type": "Point", "coordinates": [-94.13809967, 46.39830017]}}, {"type": "Feature", "properties": {"departure": "BRO", "City name_x": "Brownsville", "Country name_y": "United States", "mean_arr_delay": -0.994535519125683}, "geometry": {"type": "Point", "coordinates": [-97.42590332, 25.90679932]}}, {"type": "Feature", "properties": {"departure": "BRW", "City name_x": "Barrow", "Country name_y": "United States", "mean_arr_delay": 19.866666666666667}, "geometry": {"type": "Point", "coordinates": [-156.766008, 71.285402]}}, {"type": "Feature", "properties": {"departure": "BTM", "City name_x": "Butte", "Country name_y": "United States", "mean_arr_delay": -0.3448275862068966}, "geometry": {"type": "Point", "coordinates": [-112.49700159999998, 45.95479965]}}, {"type": "Feature", "properties": {"departure": "BTR", "City name_x": "Baton Rouge", "Country name_y": "United States", "mean_arr_delay": -0.72264631043257}, "geometry": {"type": "Point", "coordinates": [-91.149597, 30.533199]}}, {"type": "Feature", "properties": {"departure": "BTV", "City name_x": "Burlington", "Country name_y": "United States", "mean_arr_delay": -7.202279202279202}, "geometry": {"type": "Point", "coordinates": [-73.15329742, 44.47190094]}}, {"type": "Feature", "properties": {"departure": "BUF", "City name_x": "Buffalo", "Country name_y": "United States", "mean_arr_delay": -1.2375809935205184}, "geometry": {"type": "Point", "coordinates": [-78.73220062, 42.94049835]}}, {"type": "Feature", "properties": {"departure": "BUR", "City name_x": "Burbank", "Country name_y": "United States", "mean_arr_delay": -8.405376344086022}, "geometry": {"type": "Point", "coordinates": [-118.35900120000001, 34.20069885]}}, {"type": "Feature", "properties": {"departure": "BWI", "City name_x": "Baltimore", "Country name_y": "United States", "mean_arr_delay": -2.888264910921766}, "geometry": {"type": "Point", "coordinates": [-76.668297, 39.1754]}}, {"type": "Feature", "properties": {"departure": "BZN", "City name_x": "Bozeman", "Country name_y": "United States", "mean_arr_delay": -2.495460440985733}, "geometry": {"type": "Point", "coordinates": [-111.15299990000001, 45.77750015]}}, {"type": "Feature", "properties": {"departure": "CAE", "City name_x": "Columbia", "Country name_y": "United States", "mean_arr_delay": -2.5926640926640925}, "geometry": {"type": "Point", "coordinates": [-81.11949921, 33.93880081]}}, {"type": "Feature", "properties": {"departure": "CAK", "City name_x": "Akron/Canton", "Country name_y": "United States", "mean_arr_delay": -3.0365853658536586}, "geometry": {"type": "Point", "coordinates": [-81.44219971, 40.91609955]}}, {"type": "Feature", "properties": {"departure": "CDB", "City name_x": "Cold Bay", "Country name_y": "United States", "mean_arr_delay": 28.5}, "geometry": {"type": "Point", "coordinates": [-162.7250061, 55.20610046]}}, {"type": "Feature", "properties": {"departure": "CDC", "City name_x": "Cedar City", "Country name_y": "United States", "mean_arr_delay": 19.18867924528302}, "geometry": {"type": "Point", "coordinates": [-113.09899899999999, 37.70100021]}}, {"type": "Feature", "properties": {"departure": "CDV", "City name_x": "Cordova", "Country name_y": "United States", "mean_arr_delay": -1.6333333333333333}, "geometry": {"type": "Point", "coordinates": [-145.4779968, 60.49179839999999]}}, {"type": "Feature", "properties": {"departure": "CGI", "City name_x": "Cape Girardeau", "Country name_y": "United States", "mean_arr_delay": -16.528301886792452}, "geometry": {"type": "Point", "coordinates": [-89.57080078, 37.22529984]}}, {"type": "Feature", "properties": {"departure": "CHA", "City name_x": "Chattanooga", "Country name_y": "United States", "mean_arr_delay": -6.543788187372709}, "geometry": {"type": "Point", "coordinates": [-85.20379639, 35.03530121]}}, {"type": "Feature", "properties": {"departure": "CHO", "City name_x": "Charlottesville", "Country name_y": "United States", "mean_arr_delay": -8.051851851851852}, "geometry": {"type": "Point", "coordinates": [-78.45290375, 38.138599400000004]}}, {"type": "Feature", "properties": {"departure": "CHS", "City name_x": "Charleston", "Country name_y": "United States", "mean_arr_delay": -4.247713414634147}, "geometry": {"type": "Point", "coordinates": [-80.04049683, 32.89860153]}}, {"type": "Feature", "properties": {"departure": "CID", "City name_x": "Cedar Rapids", "Country name_y": "United States", "mean_arr_delay": 0.4490161001788909}, "geometry": {"type": "Point", "coordinates": [-91.71080017, 41.88470078]}}, {"type": "Feature", "properties": {"departure": "CIU", "City name_x": "Sault Ste Marie", "Country name_y": "United States", "mean_arr_delay": 13.950819672131148}, "geometry": {"type": "Point", "coordinates": [-84.47239685, 46.25080109]}}, {"type": "Feature", "properties": {"departure": "CKB", "City name_x": "Clarksburg", "Country name_y": "United States", "mean_arr_delay": -3.578125}, "geometry": {"type": "Point", "coordinates": [-80.22810364, 39.29660034]}}, {"type": "Feature", "properties": {"departure": "CLE", "City name_x": "Cleveland", "Country name_y": "United States", "mean_arr_delay": -1.5367783985102421}, "geometry": {"type": "Point", "coordinates": [-81.84980011, 41.4117012]}}, {"type": "Feature", "properties": {"departure": "CLL", "City name_x": "College Station", "Country name_y": "United States", "mean_arr_delay": 13.375}, "geometry": {"type": "Point", "coordinates": [-96.36380005, 30.58860016]}}, {"type": "Feature", "properties": {"departure": "CLT", "City name_x": "Charlotte", "Country name_y": "United States", "mean_arr_delay": -3.9851626150890906}, "geometry": {"type": "Point", "coordinates": [-80.94309998, 35.21400070000001]}}, {"type": "Feature", "properties": {"departure": "CMH", "City name_x": "Columbus", "Country name_y": "United States", "mean_arr_delay": -2.0035952747817154}, "geometry": {"type": "Point", "coordinates": [-82.891899, 39.998001]}}, {"type": "Feature", "properties": {"departure": "CMI", "City name_x": "Champaign", "Country name_y": "United States", "mean_arr_delay": 3.7711864406779663}, "geometry": {"type": "Point", "coordinates": [-88.27809906, 40.03919983]}}, {"type": "Feature", "properties": {"departure": "CMX", "City name_x": "Hancock", "Country name_y": "United States", "mean_arr_delay": 9.32258064516129}, "geometry": {"type": "Point", "coordinates": [-88.4890976, 47.16839981]}}, {"type": "Feature", "properties": {"departure": "CNY", "City name_x": "Moab", "Country name_y": "United States", "mean_arr_delay": 9.32258064516129}, "geometry": {"type": "Point", "coordinates": [-109.7549973, 38.75500107]}}, {"type": "Feature", "properties": {"departure": "COD", "City name_x": "Cody/Yellowstone", "Country name_y": "United States", "mean_arr_delay": 1.22}, "geometry": {"type": "Point", "coordinates": [-109.02400209999999, 44.52019882]}}, {"type": "Feature", "properties": {"departure": "COS", "City name_x": "Colorado Springs", "Country name_y": "United States", "mean_arr_delay": 4.935331230283912}, "geometry": {"type": "Point", "coordinates": [-104.70099599999999, 38.805801]}}, {"type": "Feature", "properties": {"departure": "COU", "City name_x": "Columbia", "Country name_y": "United States", "mean_arr_delay": 0.6896551724137931}, "geometry": {"type": "Point", "coordinates": [-92.21959686, 38.81809998]}}, {"type": "Feature", "properties": {"departure": "CPR", "City name_x": "Casper", "Country name_y": "United States", "mean_arr_delay": 4.2748538011695905}, "geometry": {"type": "Point", "coordinates": [-106.46399699999999, 42.908001]}}, {"type": "Feature", "properties": {"departure": "CRP", "City name_x": "Corpus Christi", "Country name_y": "United States", "mean_arr_delay": -1.0680473372781065}, "geometry": {"type": "Point", "coordinates": [-97.50119781, 27.77039909]}}, {"type": "Feature", "properties": {"departure": "CRW", "City name_x": "Charleston", "Country name_y": "United States", "mean_arr_delay": -2.646288209606987}, "geometry": {"type": "Point", "coordinates": [-81.59320068, 38.37310028]}}, {"type": "Feature", "properties": {"departure": "CSG", "City name_x": NaN, "Country name_y": NaN, "mean_arr_delay": -5.83}, "geometry": {"type": "Point", "coordinates": [NaN, NaN]}}, {"type": "Feature", "properties": {"departure": "CVG", "City name_x": "Cincinnati", "Country name_y": "United States", "mean_arr_delay": -1.4252293577981652}, "geometry": {"type": "Point", "coordinates": [-84.6678009, 39.04880142]}}, {"type": "Feature", "properties": {"departure": "CWA", "City name_x": "Wausau", "Country name_y": "United States", "mean_arr_delay": 3.925675675675676}, "geometry": {"type": "Point", "coordinates": [-89.66680145, 44.77759933]}}, {"type": "Feature", "properties": {"departure": "CYS", "City name_x": "Cheyenne", "Country name_y": "United States", "mean_arr_delay": -19.032258064516128}, "geometry": {"type": "Point", "coordinates": [-104.81199649999999, 41.15570068]}}, {"type": "Feature", "properties": {"departure": "DAB", "City name_x": "Daytona Beach", "Country name_y": "United States", "mean_arr_delay": 1.036764705882353}, "geometry": {"type": "Point", "coordinates": [-81.058098, 29.179899]}}, {"type": "Feature", "properties": {"departure": "DAL", "City name_x": "Dallas", "Country name_y": "United States", "mean_arr_delay": -2.9465950833568804}, "geometry": {"type": "Point", "coordinates": [-96.851799, 32.847099]}}, {"type": "Feature", "properties": {"departure": "DAY", "City name_x": "Dayton", "Country name_y": "United States", "mean_arr_delay": -5.544360902255639}, "geometry": {"type": "Point", "coordinates": [-84.2193985, 39.90240097]}}, {"type": "Feature", "properties": {"departure": "DCA", "City name_x": "Washington", "Country name_y": "United States", "mean_arr_delay": -10.065059445178335}, "geometry": {"type": "Point", "coordinates": [-77.037697, 38.8521]}}, {"type": "Feature", "properties": {"departure": "DDC", "City name_x": "Dodge City", "Country name_y": "United States", "mean_arr_delay": 28.20754716981132}, "geometry": {"type": "Point", "coordinates": [-99.96559906, 37.76340103]}}, {"type": "Feature", "properties": {"departure": "DEC", "City name_x": "Decatur", "Country name_y": "United States", "mean_arr_delay": -2.6792452830188678}, "geometry": {"type": "Point", "coordinates": [-88.86569977, 39.83459854]}}, {"type": "Feature", "properties": {"departure": "DEN", "City name_x": "Denver", "Country name_y": "United States", "mean_arr_delay": 0.2703208409003357}, "geometry": {"type": "Point", "coordinates": [-104.6729965, 39.86169815]}}, {"type": "Feature", "properties": {"departure": "DFW", "City name_x": "Dallas", "Country name_y": "United States", "mean_arr_delay": 2.9919428397689267}, "geometry": {"type": "Point", "coordinates": [-97.038002, 32.896801]}}, {"type": "Feature", "properties": {"departure": "DHN", "City name_x": "Dothan", "Country name_y": "United States", "mean_arr_delay": -12.372549019607844}, "geometry": {"type": "Point", "coordinates": [-85.44960022, 31.32130051]}}, {"type": "Feature", "properties": {"departure": "DIK", "City name_x": "Dickinson", "Country name_y": "United States", "mean_arr_delay": 14.666666666666666}, "geometry": {"type": "Point", "coordinates": [-102.802002, 46.79740143]}}, {"type": "Feature", "properties": {"departure": "DLG", "City name_x": "Dillingham", "Country name_y": "United States", "mean_arr_delay": 20.2}, "geometry": {"type": "Point", "coordinates": [-158.50500490000002, 59.04470062]}}, {"type": "Feature", "properties": {"departure": "DLH", "City name_x": "Duluth", "Country name_y": "United States", "mean_arr_delay": -12.921787709497206}, "geometry": {"type": "Point", "coordinates": [-92.19360352, 46.84209824]}}, {"type": "Feature", "properties": {"departure": "DRO", "City name_x": "Durango", "Country name_y": "United States", "mean_arr_delay": 11.978798586572438}, "geometry": {"type": "Point", "coordinates": [-107.7539978, 37.15150070000001]}}, {"type": "Feature", "properties": {"departure": "DSM", "City name_x": "Des Moines", "Country name_y": "United States", "mean_arr_delay": 3.803174603174603}, "geometry": {"type": "Point", "coordinates": [-93.6631012, 41.5340004]}}, {"type": "Feature", "properties": {"departure": "DTW", "City name_x": "Detroit", "Country name_y": "United States", "mean_arr_delay": 1.89538913979624}, "geometry": {"type": "Point", "coordinates": [-83.35340118, 42.21239853]}}, {"type": "Feature", "properties": {"departure": "DVL", "City name_x": "Devils Lake", "Country name_y": "United States", "mean_arr_delay": 13.754716981132075}, "geometry": {"type": "Point", "coordinates": [-98.90879822, 48.11420059]}}, {"type": "Feature", "properties": {"departure": "EAR", "City name_x": "Kearney", "Country name_y": NaN, "mean_arr_delay": 13.327868852459016}, "geometry": {"type": "Point", "coordinates": [NaN, NaN]}}, {"type": "Feature", "properties": {"departure": "EAT", "City name_x": "Wenatchee", "Country name_y": "United States", "mean_arr_delay": 1.3064516129032258}, "geometry": {"type": "Point", "coordinates": [-120.2070007, 47.39889908]}}, {"type": "Feature", "properties": {"departure": "EAU", "City name_x": "Eau Claire", "Country name_y": "United States", "mean_arr_delay": -14.96774193548387}, "geometry": {"type": "Point", "coordinates": [-91.48429871, 44.86579895]}}, {"type": "Feature", "properties": {"departure": "ECP", "City name_x": NaN, "Country name_y": NaN, "mean_arr_delay": 0.09225092250922509}, "geometry": {"type": "Point", "coordinates": [NaN, NaN]}}, {"type": "Feature", "properties": {"departure": "EGE", "City name_x": "Vail/Eagle", "Country name_y": "United States", "mean_arr_delay": 20.388198757763973}, "geometry": {"type": "Point", "coordinates": [-106.9179993, 39.64260101]}}, {"type": "Feature", "properties": {"departure": "EKO", "City name_x": "Elko", "Country name_y": "United States", "mean_arr_delay": 8.232142857142858}, "geometry": {"type": "Point", "coordinates": [-115.79199979999999, 40.82490158]}}, {"type": "Feature", "properties": {"departure": "ELM", "City name_x": "Corning", "Country name_y": "United States", "mean_arr_delay": -11.628205128205128}, "geometry": {"type": "Point", "coordinates": [-76.89160156, 42.15990067]}}, {"type": "Feature", "properties": {"departure": "ELP", "City name_x": "El Paso", "Country name_y": "United States", "mean_arr_delay": -1.2220888355342137}, "geometry": {"type": "Point", "coordinates": [-106.37799840000002, 31.80719948]}}, {"type": "Feature", "properties": {"departure": "ERI", "City name_x": "Erie", "Country name_y": "United States", "mean_arr_delay": 3.3009708737864076}, "geometry": {"type": "Point", "coordinates": [-80.17386675, 42.08312701]}}, {"type": "Feature", "properties": {"departure": "ESC", "City name_x": "Escanaba", "Country name_y": "United States", "mean_arr_delay": 10.192307692307692}, "geometry": {"type": "Point", "coordinates": [-87.09369659, 45.72269821]}}, {"type": "Feature", "properties": {"departure": "EUG", "City name_x": "Eugene", "Country name_y": "United States", "mean_arr_delay": -6.6309904153354635}, "geometry": {"type": "Point", "coordinates": [-123.211998, 44.12459946]}}, {"type": "Feature", "properties": {"departure": "EVV", "City name_x": "Evansville", "Country name_y": "United States", "mean_arr_delay": -2.2847682119205297}, "geometry": {"type": "Point", "coordinates": [-87.53240204, 38.03699875]}}, {"type": "Feature", "properties": {"departure": "EWN", "City name_x": "New Bern", "Country name_y": "United States", "mean_arr_delay": -12.1010101010101}, "geometry": {"type": "Point", "coordinates": [-77.04290009, 35.07300186]}}, {"type": "Feature", "properties": {"departure": "EWR", "City name_x": "Newark", "Country name_y": "United States", "mean_arr_delay": -5.394823123382226}, "geometry": {"type": "Point", "coordinates": [-74.16870117, 40.69250107]}}, {"type": "Feature", "properties": {"departure": "EYW", "City name_x": "Key West", "Country name_y": "United States", "mean_arr_delay": -4.652616279069767}, "geometry": {"type": "Point", "coordinates": [-81.75959778, 24.55610085]}}, {"type": "Feature", "properties": {"departure": "FAI", "City name_x": "Fairbanks", "Country name_y": "United States", "mean_arr_delay": 0.4105691056910569}, "geometry": {"type": "Point", "coordinates": [-147.85600280000003, 64.81510162]}}, {"type": "Feature", "properties": {"departure": "FAR", "City name_x": "Fargo", "Country name_y": "United States", "mean_arr_delay": -2.3192389006342493}, "geometry": {"type": "Point", "coordinates": [-96.81580353, 46.92070007]}}, {"type": "Feature", "properties": {"departure": "FAT", "City name_x": "Fresno", "Country name_y": "United States", "mean_arr_delay": 3.4916434540389973}, "geometry": {"type": "Point", "coordinates": [-119.71800230000001, 36.77619934]}}, {"type": "Feature", "properties": {"departure": "FAY", "City name_x": "Fayetteville", "Country name_y": "United States", "mean_arr_delay": -3.4897119341563787}, "geometry": {"type": "Point", "coordinates": [-78.88030243, 34.99119949]}}, {"type": "Feature", "properties": {"departure": "FCA", "City name_x": "Kalispell", "Country name_y": "United States", "mean_arr_delay": 9.25748502994012}, "geometry": {"type": "Point", "coordinates": [-114.2559967, 48.3105011]}}, {"type": "Feature", "properties": {"departure": "FLG", "City name_x": "Grand Canyon", "Country name_y": "United States", "mean_arr_delay": -3.746987951807229}, "geometry": {"type": "Point", "coordinates": [-111.6709976, 35.13850021]}}, {"type": "Feature", "properties": {"departure": "FLL", "City name_x": "Fort Lauderdale", "Country name_y": "United States", "mean_arr_delay": 0.37691555265731985}, "geometry": {"type": "Point", "coordinates": [-80.152702, 26.072599]}}, {"type": "Feature", "properties": {"departure": "FNT", "City name_x": "Flint", "Country name_y": "United States", "mean_arr_delay": -1.1887550200803212}, "geometry": {"type": "Point", "coordinates": [-83.74359894, 42.965400700000004]}}, {"type": "Feature", "properties": {"departure": "FSD", "City name_x": "Sioux Falls", "Country name_y": "United States", "mean_arr_delay": 1.7661431064572426}, "geometry": {"type": "Point", "coordinates": [-96.74189758, 43.58200073]}}, {"type": "Feature", "properties": {"departure": "FSM", "City name_x": "Fort Smith", "Country name_y": "United States", "mean_arr_delay": 1.3863636363636365}, "geometry": {"type": "Point", "coordinates": [-94.36740112, 35.33660126]}}, {"type": "Feature", "properties": {"departure": "FWA", "City name_x": "Fort Wayne", "Country name_y": "United States", "mean_arr_delay": -3.5665961945031714}, "geometry": {"type": "Point", "coordinates": [-85.19509888, 40.97850037]}}, {"type": "Feature", "properties": {"departure": "GCC", "City name_x": "Gillette", "Country name_y": "United States", "mean_arr_delay": 7.909090909090909}, "geometry": {"type": "Point", "coordinates": [-105.53900149999998, 44.34889984]}}, {"type": "Feature", "properties": {"departure": "GCK", "City name_x": "Garden City", "Country name_y": "United States", "mean_arr_delay": 17.879310344827587}, "geometry": {"type": "Point", "coordinates": [-100.72399899999999, 37.92750168]}}, {"type": "Feature", "properties": {"departure": "GEG", "City name_x": "Spokane", "Country name_y": "United States", "mean_arr_delay": 1.4084044648719631}, "geometry": {"type": "Point", "coordinates": [-117.5339966, 47.61989975]}}, {"type": "Feature", "properties": {"departure": "GFK", "City name_x": "Grand Forks", "Country name_y": "United States", "mean_arr_delay": -1.0594059405940595}, "geometry": {"type": "Point", "coordinates": [-97.176102, 47.949298999999996]}}, {"type": "Feature", "properties": {"departure": "GGG", "City name_x": "Kilgore", "Country name_y": "United States", "mean_arr_delay": 12.166666666666666}, "geometry": {"type": "Point", "coordinates": [-94.71150208, 32.38399887]}}, {"type": "Feature", "properties": {"departure": "GJT", "City name_x": "Grand Junction", "Country name_y": "United States", "mean_arr_delay": 4.050131926121372}, "geometry": {"type": "Point", "coordinates": [-108.52700039999999, 39.12239838]}}, {"type": "Feature", "properties": {"departure": "GNV", "City name_x": "Gainesville", "Country name_y": "United States", "mean_arr_delay": -2.2674418604651163}, "geometry": {"type": "Point", "coordinates": [-82.27179718, 29.69009972]}}, {"type": "Feature", "properties": {"departure": "GPT", "City name_x": "Gulfport", "Country name_y": "United States", "mean_arr_delay": -3.4805970149253733}, "geometry": {"type": "Point", "coordinates": [-89.07009888, 30.40730095]}}, {"type": "Feature", "properties": {"departure": "GRB", "City name_x": "Green Bay", "Country name_y": "United States", "mean_arr_delay": -8.903314917127071}, "geometry": {"type": "Point", "coordinates": [-88.12960052, 44.48509979]}}, {"type": "Feature", "properties": {"departure": "GRI", "City name_x": "Grand Island", "Country name_y": "United States", "mean_arr_delay": 16.22222222222222}, "geometry": {"type": "Point", "coordinates": [-98.30960083, 40.96749878]}}, {"type": "Feature", "properties": {"departure": "GRK", "City name_x": "Killeen", "Country name_y": "United States", "mean_arr_delay": 5.5198237885462555}, "geometry": {"type": "Point", "coordinates": [-97.8289032, 31.06719971]}}, {"type": "Feature", "properties": {"departure": "GRR", "City name_x": "Grand Rapids", "Country name_y": "United States", "mean_arr_delay": -6.6444636678200695}, "geometry": {"type": "Point", "coordinates": [-85.52279663, 42.88079834]}}, {"type": "Feature", "properties": {"departure": "GSO", "City name_x": "High Point", "Country name_y": "United States", "mean_arr_delay": -7.797919762258544}, "geometry": {"type": "Point", "coordinates": [-79.93730164, 36.09780121]}}, {"type": "Feature", "properties": {"departure": "GSP", "City name_x": "Greenville", "Country name_y": "United States", "mean_arr_delay": -2.778436018957346}, "geometry": {"type": "Point", "coordinates": [-82.21890259, 34.89569855]}}, {"type": "Feature", "properties": {"departure": "GTF", "City name_x": "Great Falls", "Country name_y": "United States", "mean_arr_delay": 6.529166666666667}, "geometry": {"type": "Point", "coordinates": [-111.3710022, 47.48199844]}}, {"type": "Feature", "properties": {"departure": "GTR", "City name_x": "Columbus", "Country name_y": "United States", "mean_arr_delay": -14.310344827586206}, "geometry": {"type": "Point", "coordinates": [-88.59140015, 33.45029831]}}, {"type": "Feature", "properties": {"departure": "GUC", "City name_x": "Gunnison", "Country name_y": "United States", "mean_arr_delay": 24.035714285714285}, "geometry": {"type": "Point", "coordinates": [-106.9329987, 38.53390121]}}, {"type": "Feature", "properties": {"departure": "GUM", "City name_x": NaN, "Country name_y": NaN, "mean_arr_delay": -2.409090909090909}, "geometry": {"type": "Point", "coordinates": [NaN, NaN]}}, {"type": "Feature", "properties": {"departure": "HDN", "City name_x": "Hayden", "Country name_y": "United States", "mean_arr_delay": 6.724696356275303}, "geometry": {"type": "Point", "coordinates": [-107.21800230000001, 40.48120117]}}, {"type": "Feature", "properties": {"departure": "HGR", "City name_x": "Hagerstown", "Country name_y": "United States", "mean_arr_delay": -10.285714285714286}, "geometry": {"type": "Point", "coordinates": [-77.72949982, 39.707901]}}, {"type": "Feature", "properties": {"departure": "HHH", "City name_x": "Hilton Head", "Country name_y": "United States", "mean_arr_delay": 3.224852071005917}, "geometry": {"type": "Point", "coordinates": [-80.69750214, 32.22439957]}}, {"type": "Feature", "properties": {"departure": "HIB", "City name_x": "Chisholm", "Country name_y": "United States", "mean_arr_delay": 23.433962264150942}, "geometry": {"type": "Point", "coordinates": [-92.83899689, 47.38660049]}}, {"type": "Feature", "properties": {"departure": "HLN", "City name_x": "Helena", "Country name_y": "United States", "mean_arr_delay": -5.867647058823529}, "geometry": {"type": "Point", "coordinates": [-111.9830017, 46.60680008]}}, {"type": "Feature", "properties": {"departure": "HNL", "City name_x": "Honolulu", "Country name_y": "United States", "mean_arr_delay": -1.7300977653631284}, "geometry": {"type": "Point", "coordinates": [-157.924228, 21.32062]}}, {"type": "Feature", "properties": {"departure": "HOB", "City name_x": "Hobbs", "Country name_y": "United States", "mean_arr_delay": -8.73913043478261}, "geometry": {"type": "Point", "coordinates": [-103.21700290000001, 32.6875]}}, {"type": "Feature", "properties": {"departure": "HOU", "City name_x": "Houston", "Country name_y": "United States", "mean_arr_delay": 1.4873949579831933}, "geometry": {"type": "Point", "coordinates": [-95.27890015, 29.64539909]}}, {"type": "Feature", "properties": {"departure": "HPN", "City name_x": "Westchester County", "Country name_y": "United States", "mean_arr_delay": 5.645161290322581}, "geometry": {"type": "Point", "coordinates": [-73.70760345, 41.06700134]}}, {"type": "Feature", "properties": {"departure": "HRL", "City name_x": "Harlingen", "Country name_y": "United States", "mean_arr_delay": -4.222222222222222}, "geometry": {"type": "Point", "coordinates": [-97.65440369, 26.22850037]}}, {"type": "Feature", "properties": {"departure": "HSV", "City name_x": "Huntsville", "Country name_y": "United States", "mean_arr_delay": -0.7952029520295203}, "geometry": {"type": "Point", "coordinates": [-86.77510071, 34.6371994]}}, {"type": "Feature", "properties": {"departure": "HTS", "City name_x": "Huntington", "Country name_y": "United States", "mean_arr_delay": -6.378378378378378}, "geometry": {"type": "Point", "coordinates": [-82.55799866, 38.36669922]}}, {"type": "Feature", "properties": {"departure": "HYS", "City name_x": "Hays", "Country name_y": "United States", "mean_arr_delay": -3.358490566037736}, "geometry": {"type": "Point", "coordinates": [-99.27320099, 38.84220123]}}, {"type": "Feature", "properties": {"departure": "IAD", "City name_x": "Dulles, DC", "Country name_y": "United States", "mean_arr_delay": -3.578388912949329}, "geometry": {"type": "Point", "coordinates": [-77.45580292, 38.94449997]}}, {"type": "Feature", "properties": {"departure": "IAG", "City name_x": "Niagara Falls", "Country name_y": "United States", "mean_arr_delay": 1.8461538461538463}, "geometry": {"type": "Point", "coordinates": [-78.94619751, 43.1072998]}}, {"type": "Feature", "properties": {"departure": "IAH", "City name_x": "Houston", "Country name_y": "United States", "mean_arr_delay": -2.258278879167128}, "geometry": {"type": "Point", "coordinates": [-95.34140015, 29.984399800000002]}}, {"type": "Feature", "properties": {"departure": "ICT", "City name_x": "Wichita", "Country name_y": "United States", "mean_arr_delay": 2.2248875562218893}, "geometry": {"type": "Point", "coordinates": [-97.433098, 37.649899]}}, {"type": "Feature", "properties": {"departure": "IDA", "City name_x": "Idaho Falls", "Country name_y": "United States", "mean_arr_delay": 5.18141592920354}, "geometry": {"type": "Point", "coordinates": [-112.070999, 43.514599]}}, {"type": "Feature", "properties": {"departure": "ILM", "City name_x": "Wilmington", "Country name_y": "United States", "mean_arr_delay": -4.1063829787234045}, "geometry": {"type": "Point", "coordinates": [-77.90260315, 34.27059937]}}, {"type": "Feature", "properties": {"departure": "IMT", "City name_x": "Iron Mountain", "Country name_y": "United States", "mean_arr_delay": 1.3770491803278688}, "geometry": {"type": "Point", "coordinates": [-88.11450195, 45.81840134]}}, {"type": "Feature", "properties": {"departure": "IND", "City name_x": "Indianapolis", "Country name_y": "United States", "mean_arr_delay": -5.603974121996303}, "geometry": {"type": "Point", "coordinates": [-86.294403, 39.7173]}}, {"type": "Feature", "properties": {"departure": "INL", "City name_x": "International Falls", "Country name_y": "United States", "mean_arr_delay": 15.49056603773585}, "geometry": {"type": "Point", "coordinates": [-93.40309906, 48.56620026]}}, {"type": "Feature", "properties": {"departure": "ISP", "City name_x": "Islip", "Country name_y": "United States", "mean_arr_delay": -9.113924050632912}, "geometry": {"type": "Point", "coordinates": [-73.10019684, 40.79520035]}}, {"type": "Feature", "properties": {"departure": "ITH", "City name_x": "Ithaca", "Country name_y": "United States", "mean_arr_delay": -3.3492063492063493}, "geometry": {"type": "Point", "coordinates": [-76.45839691, 42.49100113]}}, {"type": "Feature", "properties": {"departure": "ITO", "City name_x": "Hilo", "Country name_y": "United States", "mean_arr_delay": -5.079268292682927}, "geometry": {"type": "Point", "coordinates": [-155.04800419999998, 19.72139931]}}, {"type": "Feature", "properties": {"departure": "JAC", "City name_x": "Jackson", "Country name_y": "United States", "mean_arr_delay": 5.884057971014493}, "geometry": {"type": "Point", "coordinates": [-110.737999, 43.6072998]}}, {"type": "Feature", "properties": {"departure": "JAN", "City name_x": "Jackson", "Country name_y": "United States", "mean_arr_delay": 0.4872389791183295}, "geometry": {"type": "Point", "coordinates": [-90.07589722, 32.31119919]}}, {"type": "Feature", "properties": {"departure": "JAX", "City name_x": "Jacksonville", "Country name_y": "United States", "mean_arr_delay": -2.4082474226804123}, "geometry": {"type": "Point", "coordinates": [-81.68789673, 30.49410057]}}, {"type": "Feature", "properties": {"departure": "JFK", "City name_x": "New York", "Country name_y": "United States", "mean_arr_delay": 1.8083670715249662}, "geometry": {"type": "Point", "coordinates": [-73.77890015, 40.63980103]}}, {"type": "Feature", "properties": {"departure": "JLN", "City name_x": "Joplin", "Country name_y": "United States", "mean_arr_delay": 8.229508196721312}, "geometry": {"type": "Point", "coordinates": [-94.49829865, 37.15179825]}}, {"type": "Feature", "properties": {"departure": "JMS", "City name_x": "Jamestown", "Country name_y": "United States", "mean_arr_delay": -5.988095238095238}, "geometry": {"type": "Point", "coordinates": [-98.67819977, 46.92969894]}}, {"type": "Feature", "properties": {"departure": "JNU", "City name_x": "Juneau", "Country name_y": "United States", "mean_arr_delay": -1.4918032786885247}, "geometry": {"type": "Point", "coordinates": [-134.576004, 58.35499954]}}, {"type": "Feature", "properties": {"departure": "JST", "City name_x": "Johnstown", "Country name_y": "United States", "mean_arr_delay": -26.88}, "geometry": {"type": "Point", "coordinates": [-78.83390045, 40.31610107]}}, {"type": "Feature", "properties": {"departure": "KOA", "City name_x": "Kona", "Country name_y": "United States", "mean_arr_delay": -7.320238095238095}, "geometry": {"type": "Point", "coordinates": [-156.045603, 19.738782999999998]}}, {"type": "Feature", "properties": {"departure": "KTN", "City name_x": "Ketchikan", "Country name_y": "United States", "mean_arr_delay": -3.825}, "geometry": {"type": "Point", "coordinates": [-131.7140045, 55.35559845]}}, {"type": "Feature", "properties": {"departure": "LAN", "City name_x": "Lansing", "Country name_y": "United States", "mean_arr_delay": 3.8666666666666667}, "geometry": {"type": "Point", "coordinates": [-84.58740234, 42.77870178]}}, {"type": "Feature", "properties": {"departure": "LAR", "City name_x": "Laramie", "Country name_y": "United States", "mean_arr_delay": 19.41509433962264}, "geometry": {"type": "Point", "coordinates": [-105.6750031, 41.31209946]}}, {"type": "Feature", "properties": {"departure": "LAS", "City name_x": "Las Vegas", "Country name_y": "United States", "mean_arr_delay": -4.248194735616119}, "geometry": {"type": "Point", "coordinates": [-115.15200039999999, 36.08010101]}}, {"type": "Feature", "properties": {"departure": "LAW", "City name_x": "Lawton", "Country name_y": "United States", "mean_arr_delay": 14.941176470588236}, "geometry": {"type": "Point", "coordinates": [-98.41660309, 34.56769943]}}, {"type": "Feature", "properties": {"departure": "LAX", "City name_x": "Los Angeles", "Country name_y": "United States", "mean_arr_delay": -2.4623178616230823}, "geometry": {"type": "Point", "coordinates": [-118.40799709999999, 33.94250107]}}, {"type": "Feature", "properties": {"departure": "LBB", "City name_x": "Lubbock", "Country name_y": "United States", "mean_arr_delay": 2.7477064220183487}, "geometry": {"type": "Point", "coordinates": [-101.822998, 33.663601]}}, {"type": "Feature", "properties": {"departure": "LBE", "City name_x": "Latrobe", "Country name_y": "United States", "mean_arr_delay": 1.171875}, "geometry": {"type": "Point", "coordinates": [-79.40480042, 40.27590179]}}, {"type": "Feature", "properties": {"departure": "LBF", "City name_x": "North Platte", "Country name_y": "United States", "mean_arr_delay": 11.735849056603774}, "geometry": {"type": "Point", "coordinates": [-100.6839981, 41.12620163]}}, {"type": "Feature", "properties": {"departure": "LBL", "City name_x": "Liberal", "Country name_y": "United States", "mean_arr_delay": -2.9056603773584904}, "geometry": {"type": "Point", "coordinates": [-100.95999909999999, 37.04420089999999]}}, {"type": "Feature", "properties": {"departure": "LCH", "City name_x": "Lake Charles", "Country name_y": "United States", "mean_arr_delay": -2.8545454545454545}, "geometry": {"type": "Point", "coordinates": [-93.22329712, 30.12610054]}}, {"type": "Feature", "properties": {"departure": "LCK", "City name_x": "Columbus", "Country name_y": "United States", "mean_arr_delay": 19.85333333333333}, "geometry": {"type": "Point", "coordinates": [-82.927803, 39.813801]}}, {"type": "Feature", "properties": {"departure": "LEX", "City name_x": "Lexington", "Country name_y": "United States", "mean_arr_delay": -1.2738301559792027}, "geometry": {"type": "Point", "coordinates": [-84.60590363, 38.03649902]}}, {"type": "Feature", "properties": {"departure": "LFT", "City name_x": "New Iberia", "Country name_y": "United States", "mean_arr_delay": -1.8653295128939829}, "geometry": {"type": "Point", "coordinates": [-91.98760223, 30.20529938]}}, {"type": "Feature", "properties": {"departure": "LGA", "City name_x": "New York", "Country name_y": "United States", "mean_arr_delay": -8.101412066752246}, "geometry": {"type": "Point", "coordinates": [-73.87259674, 40.77719879]}}, {"type": "Feature", "properties": {"departure": "LGB", "City name_x": "Long Beach", "Country name_y": "United States", "mean_arr_delay": -7.408408408408408}, "geometry": {"type": "Point", "coordinates": [-118.15200039999999, 33.81769943]}}, {"type": "Feature", "properties": {"departure": "LIH", "City name_x": "Kauai Island", "Country name_y": "United States", "mean_arr_delay": -6.5744125326370755}, "geometry": {"type": "Point", "coordinates": [-159.3390045, 21.97599983]}}, {"type": "Feature", "properties": {"departure": "LIT", "City name_x": "Little Rock", "Country name_y": "United States", "mean_arr_delay": -0.24050632911392406}, "geometry": {"type": "Point", "coordinates": [-92.22429657, 34.72940063]}}, {"type": "Feature", "properties": {"departure": "LNK", "City name_x": "Lincoln", "Country name_y": "United States", "mean_arr_delay": 4.357142857142857}, "geometry": {"type": "Point", "coordinates": [-96.75920105, 40.85100174]}}, {"type": "Feature", "properties": {"departure": "LNY", "City name_x": "Lanai City", "Country name_y": "United States", "mean_arr_delay": -2.1129032258064515}, "geometry": {"type": "Point", "coordinates": [-156.951004, 20.78560066]}}, {"type": "Feature", "properties": {"departure": "LRD", "City name_x": "Laredo", "Country name_y": "United States", "mean_arr_delay": 2.0671641791044775}, "geometry": {"type": "Point", "coordinates": [-99.46160126, 27.54380035]}}, {"type": "Feature", "properties": {"departure": "LSE", "City name_x": "La Crosse", "Country name_y": "United States", "mean_arr_delay": -4.32484076433121}, "geometry": {"type": "Point", "coordinates": [-91.256699, 43.879002]}}, {"type": "Feature", "properties": {"departure": "LWB", "City name_x": "Lewisburg", "Country name_y": "United States", "mean_arr_delay": -14.741935483870968}, "geometry": {"type": "Point", "coordinates": [-80.39949799, 37.85829926]}}, {"type": "Feature", "properties": {"departure": "LWS", "City name_x": "Lewiston", "Country name_y": "United States", "mean_arr_delay": 0.1643835616438356}, "geometry": {"type": "Point", "coordinates": [-117.0149994, 46.37450027]}}, {"type": "Feature", "properties": {"departure": "LYH", "City name_x": "Lynchburg", "Country name_y": "United States", "mean_arr_delay": -1.5737704918032787}, "geometry": {"type": "Point", "coordinates": [-79.20040131, 37.3266983]}}, {"type": "Feature", "properties": {"departure": "MAF", "City name_x": "Midland", "Country name_y": "United States", "mean_arr_delay": 1.4737793851717902}, "geometry": {"type": "Point", "coordinates": [-102.2020035, 31.94249916]}}, {"type": "Feature", "properties": {"departure": "MBS", "City name_x": "Saginaw", "Country name_y": "United States", "mean_arr_delay": 0.02962962962962963}, "geometry": {"type": "Point", "coordinates": [-84.07959747, 43.53290176]}}, {"type": "Feature", "properties": {"departure": "MCI", "City name_x": "Kansas City", "Country name_y": "United States", "mean_arr_delay": -5.665480427046264}, "geometry": {"type": "Point", "coordinates": [-94.713898, 39.2976]}}, {"type": "Feature", "properties": {"departure": "MCO", "City name_x": "Orlando", "Country name_y": "United States", "mean_arr_delay": -2.868588630311451}, "geometry": {"type": "Point", "coordinates": [-81.30899811, 28.42939949]}}, {"type": "Feature", "properties": {"departure": "MDT", "City name_x": "Harrisburg", "Country name_y": "United States", "mean_arr_delay": -9.101423487544483}, "geometry": {"type": "Point", "coordinates": [-76.76339722, 40.19350052]}}, {"type": "Feature", "properties": {"departure": "MDW", "City name_x": "Chicago", "Country name_y": "United States", "mean_arr_delay": -6.657422902223285}, "geometry": {"type": "Point", "coordinates": [-87.752403, 41.785999]}}, {"type": "Feature", "properties": {"departure": "MEI", "City name_x": "Meridian", "Country name_y": "United States", "mean_arr_delay": -21.962264150943398}, "geometry": {"type": "Point", "coordinates": [-88.75189972, 32.33259964]}}, {"type": "Feature", "properties": {"departure": "MEM", "City name_x": "Memphis", "Country name_y": "United States", "mean_arr_delay": 0.47041420118343197}, "geometry": {"type": "Point", "coordinates": [-89.97669983, 35.04240036]}}, {"type": "Feature", "properties": {"departure": "MFE", "City name_x": "Mission", "Country name_y": "United States", "mean_arr_delay": -0.4383116883116883}, "geometry": {"type": "Point", "coordinates": [-98.23860168, 26.17580032]}}, {"type": "Feature", "properties": {"departure": "MFR", "City name_x": "Medford", "Country name_y": "United States", "mean_arr_delay": 4.287066246056782}, "geometry": {"type": "Point", "coordinates": [-122.8730011, 42.37419891]}}, {"type": "Feature", "properties": {"departure": "MGM", "City name_x": "Montgomery", "Country name_y": "United States", "mean_arr_delay": 2.4444444444444446}, "geometry": {"type": "Point", "coordinates": [-86.39399719, 32.30059814]}}, {"type": "Feature", "properties": {"departure": "MHK", "City name_x": "Manhattan", "Country name_y": "United States", "mean_arr_delay": 1.8793103448275863}, "geometry": {"type": "Point", "coordinates": [-96.67079926, 39.14099884]}}, {"type": "Feature", "properties": {"departure": "MHT", "City name_x": "Manchester", "Country name_y": "United States", "mean_arr_delay": -9.874666666666666}, "geometry": {"type": "Point", "coordinates": [-71.435699, 42.932598]}}, {"type": "Feature", "properties": {"departure": "MIA", "City name_x": "Miami", "Country name_y": "United States", "mean_arr_delay": -4.400696864111498}, "geometry": {"type": "Point", "coordinates": [-80.29060364, 25.79319954]}}, {"type": "Feature", "properties": {"departure": "MKE", "City name_x": "Milwaukee", "Country name_y": "United States", "mean_arr_delay": -5.503953989935298}, "geometry": {"type": "Point", "coordinates": [-87.89659882, 42.94720078]}}, {"type": "Feature", "properties": {"departure": "MKG", "City name_x": "Muskegon", "Country name_y": "United States", "mean_arr_delay": -19.17543859649123}, "geometry": {"type": "Point", "coordinates": [-86.23819733, 43.16949844]}}, {"type": "Feature", "properties": {"departure": "MKK", "City name_x": "Hoolehua", "Country name_y": "United States", "mean_arr_delay": -2.274193548387097}, "geometry": {"type": "Point", "coordinates": [-157.095993, 21.1529007]}}, {"type": "Feature", "properties": {"departure": "MLB", "City name_x": "Melbourne", "Country name_y": "United States", "mean_arr_delay": -5.9950495049504955}, "geometry": {"type": "Point", "coordinates": [-80.64530182, 28.10280037]}}, {"type": "Feature", "properties": {"departure": "MLI", "City name_x": "Moline", "Country name_y": "United States", "mean_arr_delay": -7.926829268292683}, "geometry": {"type": "Point", "coordinates": [-90.50749969, 41.44850159]}}, {"type": "Feature", "properties": {"departure": "MLU", "City name_x": "Monroe", "Country name_y": "United States", "mean_arr_delay": -8.323383084577115}, "geometry": {"type": "Point", "coordinates": [-92.03769684, 32.51089859]}}, {"type": "Feature", "properties": {"departure": "MOB", "City name_x": "Mobile", "Country name_y": "United States", "mean_arr_delay": -0.42702702702702705}, "geometry": {"type": "Point", "coordinates": [-88.24279785, 30.69120026]}}, {"type": "Feature", "properties": {"departure": "MOT", "City name_x": "Minot", "Country name_y": "United States", "mean_arr_delay": 3.8991228070175437}, "geometry": {"type": "Point", "coordinates": [-101.2799988, 48.25939941]}}, {"type": "Feature", "properties": {"departure": "MQT", "City name_x": "Marquette", "Country name_y": "United States", "mean_arr_delay": 10.605263157894736}, "geometry": {"type": "Point", "coordinates": [-87.395401, 46.35359955]}}, {"type": "Feature", "properties": {"departure": "MRY", "City name_x": "Monterey", "Country name_y": "United States", "mean_arr_delay": -0.6060606060606061}, "geometry": {"type": "Point", "coordinates": [-121.84300230000001, 36.587001799999996]}}, {"type": "Feature", "properties": {"departure": "MSN", "City name_x": "Madison", "Country name_y": "United States", "mean_arr_delay": -5.286585365853658}, "geometry": {"type": "Point", "coordinates": [-89.33750153, 43.13990021]}}, {"type": "Feature", "properties": {"departure": "MSO", "City name_x": "Missoula", "Country name_y": "United States", "mean_arr_delay": 2.4901477832512313}, "geometry": {"type": "Point", "coordinates": [-114.0910034, 46.91630173]}}, {"type": "Feature", "properties": {"departure": "MSP", "City name_x": "Minneapolis", "Country name_y": "United States", "mean_arr_delay": -0.30154932786511734}, "geometry": {"type": "Point", "coordinates": [-93.221802, 44.882]}}, {"type": "Feature", "properties": {"departure": "MSY", "City name_x": "New Orleans", "Country name_y": "United States", "mean_arr_delay": -2.5698427382053652}, "geometry": {"type": "Point", "coordinates": [-90.25800323, 29.99340057]}}, {"type": "Feature", "properties": {"departure": "MTJ", "City name_x": "Montrose", "Country name_y": "United States", "mean_arr_delay": 0.6406779661016949}, "geometry": {"type": "Point", "coordinates": [-107.8939972, 38.50979996]}}, {"type": "Feature", "properties": {"departure": "MYR", "City name_x": "Myrtle Beach", "Country name_y": "United States", "mean_arr_delay": -4.466789667896679}, "geometry": {"type": "Point", "coordinates": [-78.92829895, 33.67969894]}}, {"type": "Feature", "properties": {"departure": "OAJ", "City name_x": "Jacksonville", "Country name_y": "United States", "mean_arr_delay": -3.0632911392405062}, "geometry": {"type": "Point", "coordinates": [-77.61209869, 34.82920074]}}, {"type": "Feature", "properties": {"departure": "OAK", "City name_x": "Oakland", "Country name_y": "United States", "mean_arr_delay": -9.161446846052051}, "geometry": {"type": "Point", "coordinates": [-122.221001, 37.721298]}}, {"type": "Feature", "properties": {"departure": "OGD", "City name_x": "Ogden", "Country name_y": "United States", "mean_arr_delay": 22.0}, "geometry": {"type": "Point", "coordinates": [-112.012001, 41.19589996]}}, {"type": "Feature", "properties": {"departure": "OGG", "City name_x": "Kahului", "Country name_y": "United States", "mean_arr_delay": -7.640973630831643}, "geometry": {"type": "Point", "coordinates": [-156.429993, 20.8986]}}, {"type": "Feature", "properties": {"departure": "OGS", "City name_x": "Ogdensburg", "Country name_y": "United States", "mean_arr_delay": -4.433962264150943}, "geometry": {"type": "Point", "coordinates": [-75.46549988, 44.68190002]}}, {"type": "Feature", "properties": {"departure": "OKC", "City name_x": "Oklahoma City", "Country name_y": "United States", "mean_arr_delay": -0.26394344069128045}, "geometry": {"type": "Point", "coordinates": [-97.60070038, 35.39310074]}}, {"type": "Feature", "properties": {"departure": "OMA", "City name_x": "Omaha", "Country name_y": "United States", "mean_arr_delay": -0.8962962962962963}, "geometry": {"type": "Point", "coordinates": [-95.89409599999999, 41.3032]}}, {"type": "Feature", "properties": {"departure": "OME", "City name_x": "Nome", "Country name_y": "United States", "mean_arr_delay": 7.7}, "geometry": {"type": "Point", "coordinates": [-165.44500730000001, 64.5121994]}}, {"type": "Feature", "properties": {"departure": "ONT", "City name_x": "Ontario", "Country name_y": "United States", "mean_arr_delay": -4.697177726926011}, "geometry": {"type": "Point", "coordinates": [-117.60099790000001, 34.05599976]}}, {"type": "Feature", "properties": {"departure": "ORD", "City name_x": "Chicago", "Country name_y": "United States", "mean_arr_delay": -5.257373181281951}, "geometry": {"type": "Point", "coordinates": [-87.9048, 41.9786]}}, {"type": "Feature", "properties": {"departure": "ORF", "City name_x": "Norfolk", "Country name_y": "United States", "mean_arr_delay": -4.004118616144975}, "geometry": {"type": "Point", "coordinates": [-76.20120239, 36.89459991]}}, {"type": "Feature", "properties": {"departure": "OTH", "City name_x": "North Bend", "Country name_y": "United States", "mean_arr_delay": -13.307692307692308}, "geometry": {"type": "Point", "coordinates": [-124.2460022, 43.417099]}}, {"type": "Feature", "properties": {"departure": "OTZ", "City name_x": "Kotzebue", "Country name_y": "United States", "mean_arr_delay": 5.333333333333333}, "geometry": {"type": "Point", "coordinates": [-162.598999, 66.88469696]}}, {"type": "Feature", "properties": {"departure": "OWB", "City name_x": "Owensboro", "Country name_y": "United States", "mean_arr_delay": -18.666666666666668}, "geometry": {"type": "Point", "coordinates": [-87.16680145, 37.74010086]}}, {"type": "Feature", "properties": {"departure": "PAE", "City name_x": "Everett", "Country name_y": "United States", "mean_arr_delay": -8.51685393258427}, "geometry": {"type": "Point", "coordinates": [-122.28199769999999, 47.90629959]}}, {"type": "Feature", "properties": {"departure": "PAH", "City name_x": "Paducah", "Country name_y": "United States", "mean_arr_delay": -19.451612903225808}, "geometry": {"type": "Point", "coordinates": [-88.77380371, 37.06079865]}}, {"type": "Feature", "properties": {"departure": "PBG", "City name_x": "Plattsburgh", "Country name_y": "United States", "mean_arr_delay": 7.225352112676056}, "geometry": {"type": "Point", "coordinates": [-73.4681015, 44.65090179]}}, {"type": "Feature", "properties": {"departure": "PBI", "City name_x": "West Palm Beach", "Country name_y": "United States", "mean_arr_delay": -1.974706971005552}, "geometry": {"type": "Point", "coordinates": [-80.09559631, 26.68320084]}}, {"type": "Feature", "properties": {"departure": "PDX", "City name_x": "Portland", "Country name_y": "United States", "mean_arr_delay": -4.861919653596344}, "geometry": {"type": "Point", "coordinates": [-122.59799960000001, 45.58869934]}}, {"type": "Feature", "properties": {"departure": "PGD", "City name_x": "Punta Gorda", "Country name_y": "United States", "mean_arr_delay": -1.3713733075435204}, "geometry": {"type": "Point", "coordinates": [-81.99050140000001, 26.92020035]}}, {"type": "Feature", "properties": {"departure": "PHF", "City name_x": "Williamsburg", "Country name_y": "United States", "mean_arr_delay": -4.772413793103448}, "geometry": {"type": "Point", "coordinates": [-76.49299622, 37.13190079]}}, {"type": "Feature", "properties": {"departure": "PHL", "City name_x": "Philadelphia", "Country name_y": "United States", "mean_arr_delay": -11.271841657646513}, "geometry": {"type": "Point", "coordinates": [-75.2410965, 39.87189865]}}, {"type": "Feature", "properties": {"departure": "PHX", "City name_x": "Phoenix", "Country name_y": "United States", "mean_arr_delay": -3.226619052215037}, "geometry": {"type": "Point", "coordinates": [-112.012001, 33.43429947]}}, {"type": "Feature", "properties": {"departure": "PIA", "City name_x": "Peoria", "Country name_y": "United States", "mean_arr_delay": -1.8956521739130434}, "geometry": {"type": "Point", "coordinates": [-89.69329834, 40.66419983]}}, {"type": "Feature", "properties": {"departure": "PIB", "City name_x": "Laurel", "Country name_y": "United States", "mean_arr_delay": -28.88679245283019}, "geometry": {"type": "Point", "coordinates": [-89.33709717, 31.46710014]}}, {"type": "Feature", "properties": {"departure": "PIE", "City name_x": "St Petersburg", "Country name_y": "United States", "mean_arr_delay": -0.6587436332767402}, "geometry": {"type": "Point", "coordinates": [-82.68740082, 27.91020012]}}, {"type": "Feature", "properties": {"departure": "PIH", "City name_x": "Pocatello", "Country name_y": "United States", "mean_arr_delay": -0.14}, "geometry": {"type": "Point", "coordinates": [-112.5960007, 42.90980148]}}, {"type": "Feature", "properties": {"departure": "PIR", "City name_x": "Pierre", "Country name_y": "United States", "mean_arr_delay": -4.60377358490566}, "geometry": {"type": "Point", "coordinates": [-100.2860031, 44.38270187]}}, {"type": "Feature", "properties": {"departure": "PIT", "City name_x": "Pittsburgh", "Country name_y": "United States", "mean_arr_delay": -3.128440366972477}, "geometry": {"type": "Point", "coordinates": [-80.23290253, 40.49150085]}}, {"type": "Feature", "properties": {"departure": "PLN", "City name_x": "Pellston", "Country name_y": "United States", "mean_arr_delay": 56.24528301886792}, "geometry": {"type": "Point", "coordinates": [-84.79669952, 45.57089996]}}, {"type": "Feature", "properties": {"departure": "PNS", "City name_x": "Pensacola", "Country name_y": "United States", "mean_arr_delay": 1.5178351783517836}, "geometry": {"type": "Point", "coordinates": [-87.18659973, 30.47340012]}}, {"type": "Feature", "properties": {"departure": "PQI", "City name_x": "Presque Isle", "Country name_y": "United States", "mean_arr_delay": -4.310344827586207}, "geometry": {"type": "Point", "coordinates": [-68.0447998, 46.68899918]}}, {"type": "Feature", "properties": {"departure": "PRC", "City name_x": "Prescott", "Country name_y": "United States", "mean_arr_delay": -2.238095238095238}, "geometry": {"type": "Point", "coordinates": [-112.41999820000001, 34.65449905]}}, {"type": "Feature", "properties": {"departure": "PSC", "City name_x": "Pasco", "Country name_y": "United States", "mean_arr_delay": -2.697459584295612}, "geometry": {"type": "Point", "coordinates": [-119.1190033, 46.26470184]}}, {"type": "Feature", "properties": {"departure": "PSG", "City name_x": "Petersburg", "Country name_y": "United States", "mean_arr_delay": 2.1333333333333333}, "geometry": {"type": "Point", "coordinates": [-132.9450073, 56.80170059]}}, {"type": "Feature", "properties": {"departure": "PSM", "City name_x": NaN, "Country name_y": NaN, "mean_arr_delay": -16.304347826086957}, "geometry": {"type": "Point", "coordinates": [NaN, NaN]}}, {"type": "Feature", "properties": {"departure": "PSP", "City name_x": "Palm Springs", "Country name_y": "United States", "mean_arr_delay": -5.159372419488027}, "geometry": {"type": "Point", "coordinates": [-116.50700379999999, 33.82970047]}}, {"type": "Feature", "properties": {"departure": "PUB", "City name_x": "Pueblo", "Country name_y": "United States", "mean_arr_delay": 1.150943396226415}, "geometry": {"type": "Point", "coordinates": [-104.49700159999999, 38.28910065]}}, {"type": "Feature", "properties": {"departure": "PUW", "City name_x": "Pullman", "Country name_y": "United States", "mean_arr_delay": -0.08064516129032258}, "geometry": {"type": "Point", "coordinates": [-117.110001, 46.7439]}}, {"type": "Feature", "properties": {"departure": "PVD", "City name_x": "Providence", "Country name_y": "United States", "mean_arr_delay": -1.7391304347826086}, "geometry": {"type": "Point", "coordinates": [-71.42040300000001, 41.732601]}}, {"type": "Feature", "properties": {"departure": "PVU", "City name_x": "Provo", "Country name_y": "United States", "mean_arr_delay": 5.134615384615385}, "geometry": {"type": "Point", "coordinates": [-111.72299960000001, 40.21920013]}}, {"type": "Feature", "properties": {"departure": "PWM", "City name_x": "Portland", "Country name_y": "United States", "mean_arr_delay": -1.5965217391304347}, "geometry": {"type": "Point", "coordinates": [-70.30930328, 43.64619827]}}, {"type": "Feature", "properties": {"departure": "RAP", "City name_x": "Rapid City", "Country name_y": "United States", "mean_arr_delay": -1.9376770538243626}, "geometry": {"type": "Point", "coordinates": [-103.0569992, 44.04529953]}}, {"type": "Feature", "properties": {"departure": "RDD", "City name_x": "Redding", "Country name_y": "United States", "mean_arr_delay": -3.3448275862068964}, "geometry": {"type": "Point", "coordinates": [-122.2929993, 40.50899887]}}, {"type": "Feature", "properties": {"departure": "RDM", "City name_x": "Redmond", "Country name_y": "United States", "mean_arr_delay": 0.7477064220183486}, "geometry": {"type": "Point", "coordinates": [-121.15000149999999, 44.254100799999996]}}, {"type": "Feature", "properties": {"departure": "RDU", "City name_x": "Raleigh/Durham", "Country name_y": "United States", "mean_arr_delay": -3.8356510745891277}, "geometry": {"type": "Point", "coordinates": [-78.78749847, 35.87760162]}}, {"type": "Feature", "properties": {"departure": "RFD", "City name_x": "Chicago", "Country name_y": "United States", "mean_arr_delay": 5.417910447761194}, "geometry": {"type": "Point", "coordinates": [-89.09719849, 42.19540024]}}, {"type": "Feature", "properties": {"departure": "RHI", "City name_x": "Rhinelander", "Country name_y": "United States", "mean_arr_delay": -13.063492063492063}, "geometry": {"type": "Point", "coordinates": [-89.46749878, 45.63119888]}}, {"type": "Feature", "properties": {"departure": "RIC", "City name_x": "Richmond", "Country name_y": "United States", "mean_arr_delay": -4.2382704691812325}, "geometry": {"type": "Point", "coordinates": [-77.31970215, 37.50519943]}}, {"type": "Feature", "properties": {"departure": "RIW", "City name_x": "Riverton", "Country name_y": "United States", "mean_arr_delay": 28.466666666666665}, "geometry": {"type": "Point", "coordinates": [-108.45999909999999, 43.06420136]}}, {"type": "Feature", "properties": {"departure": "RKS", "City name_x": "Rock Springs", "Country name_y": "United States", "mean_arr_delay": 1.0222222222222221}, "geometry": {"type": "Point", "coordinates": [-109.065001, 41.5942]}}, {"type": "Feature", "properties": {"departure": "RNO", "City name_x": NaN, "Country name_y": NaN, "mean_arr_delay": -4.684729064039409}, "geometry": {"type": "Point", "coordinates": [NaN, NaN]}}, {"type": "Feature", "properties": {"departure": "ROA", "City name_x": "Roanoke", "Country name_y": "United States", "mean_arr_delay": -3.6622340425531914}, "geometry": {"type": "Point", "coordinates": [-79.975403, 37.3255]}}, {"type": "Feature", "properties": {"departure": "ROC", "City name_x": "Rochester", "Country name_y": "United States", "mean_arr_delay": -5.6988352745424296}, "geometry": {"type": "Point", "coordinates": [-77.67240143, 43.1189003]}}, {"type": "Feature", "properties": {"departure": "ROW", "City name_x": "Roswell", "Country name_y": "United States", "mean_arr_delay": 5.578947368421052}, "geometry": {"type": "Point", "coordinates": [-104.53099820000001, 33.30160141]}}, {"type": "Feature", "properties": {"departure": "RST", "City name_x": "Rochester", "Country name_y": "United States", "mean_arr_delay": -4.273109243697479}, "geometry": {"type": "Point", "coordinates": [-92.5, 43.90829849]}}, {"type": "Feature", "properties": {"departure": "RSW", "City name_x": "Fort Myers", "Country name_y": "United States", "mean_arr_delay": 0.38616625310173697}, "geometry": {"type": "Point", "coordinates": [-81.75520325, 26.53619957]}}, {"type": "Feature", "properties": {"departure": "SAF", "City name_x": "Santa Fe", "Country name_y": "United States", "mean_arr_delay": 19.979166666666668}, "geometry": {"type": "Point", "coordinates": [-106.0889969, 35.61709976]}}, {"type": "Feature", "properties": {"departure": "SAN", "City name_x": "San Diego", "Country name_y": "United States", "mean_arr_delay": -9.025866398794575}, "geometry": {"type": "Point", "coordinates": [-117.1900024, 32.73360062]}}, {"type": "Feature", "properties": {"departure": "SAT", "City name_x": "San Antonio", "Country name_y": "United States", "mean_arr_delay": -2.3247391037446286}, "geometry": {"type": "Point", "coordinates": [-98.46980286, 29.53370094]}}, {"type": "Feature", "properties": {"departure": "SAV", "City name_x": "Savannah", "Country name_y": "United States", "mean_arr_delay": -3.03463687150838}, "geometry": {"type": "Point", "coordinates": [-81.20210266, 32.12760162]}}, {"type": "Feature", "properties": {"departure": "SBA", "City name_x": "Santa Barbara", "Country name_y": "United States", "mean_arr_delay": -4.937869822485207}, "geometry": {"type": "Point", "coordinates": [-119.8399963, 34.42620087]}}, {"type": "Feature", "properties": {"departure": "SBN", "City name_x": "South Bend", "Country name_y": "United States", "mean_arr_delay": -3.1247401247401245}, "geometry": {"type": "Point", "coordinates": [-86.31729889, 41.70869827]}}, {"type": "Feature", "properties": {"departure": "SBP", "City name_x": "San Luis Obispo", "Country name_y": "United States", "mean_arr_delay": -0.2524271844660194}, "geometry": {"type": "Point", "coordinates": [-120.6419983, 35.23680115]}}, {"type": "Feature", "properties": {"departure": "SBY", "City name_x": "Salisbury-Ocean City", "Country name_y": "United States", "mean_arr_delay": -4.122137404580153}, "geometry": {"type": "Point", "coordinates": [-75.51029968, 38.34049988]}}, {"type": "Feature", "properties": {"departure": "SCC", "City name_x": "Prudhoe Bay/Deadhorse", "Country name_y": "United States", "mean_arr_delay": -6.186046511627907}, "geometry": {"type": "Point", "coordinates": [-148.46499630000002, 70.19470215]}}, {"type": "Feature", "properties": {"departure": "SCE", "City name_x": "State College", "Country name_y": "United States", "mean_arr_delay": -3.0161290322580645}, "geometry": {"type": "Point", "coordinates": [-77.84870148, 40.84930038]}}, {"type": "Feature", "properties": {"departure": "SCK", "City name_x": "Sacramento", "Country name_y": "United States", "mean_arr_delay": -2.3333333333333335}, "geometry": {"type": "Point", "coordinates": [-121.237999, 37.89419937]}}, {"type": "Feature", "properties": {"departure": "SDF", "City name_x": "Louisville", "Country name_y": "United States", "mean_arr_delay": -3.617673579801623}, "geometry": {"type": "Point", "coordinates": [-85.736, 38.1744]}}, {"type": "Feature", "properties": {"departure": "SEA", "City name_x": "Seattle", "Country name_y": "United States", "mean_arr_delay": -5.002444134078212}, "geometry": {"type": "Point", "coordinates": [-122.308998, 47.449001]}}, {"type": "Feature", "properties": {"departure": "SFB", "City name_x": "Orlando", "Country name_y": "United States", "mean_arr_delay": -5.267142857142857}, "geometry": {"type": "Point", "coordinates": [-81.23750305, 28.77759933]}}, {"type": "Feature", "properties": {"departure": "SFO", "City name_x": "San Francisco", "Country name_y": "United States", "mean_arr_delay": -7.112251341964003}, "geometry": {"type": "Point", "coordinates": [-122.375, 37.61899948]}}, {"type": "Feature", "properties": {"departure": "SGF", "City name_x": "Springfield", "Country name_y": "United States", "mean_arr_delay": -3.1204379562043796}, "geometry": {"type": "Point", "coordinates": [-93.38860321, 37.24570084]}}, {"type": "Feature", "properties": {"departure": "SGU", "City name_x": "Saint George", "Country name_y": "United States", "mean_arr_delay": 3.385159010600707}, "geometry": {"type": "Point", "coordinates": [-113.510306, 37.036389]}}, {"type": "Feature", "properties": {"departure": "SHD", "City name_x": "Staunton", "Country name_y": "United States", "mean_arr_delay": -6.056603773584905}, "geometry": {"type": "Point", "coordinates": [-78.89640045, 38.26380157]}}, {"type": "Feature", "properties": {"departure": "SHR", "City name_x": "Sheridan", "Country name_y": "United States", "mean_arr_delay": 20.735849056603772}, "geometry": {"type": "Point", "coordinates": [-106.9800034, 44.76919937]}}, {"type": "Feature", "properties": {"departure": "SHV", "City name_x": "Shreveport", "Country name_y": "United States", "mean_arr_delay": 4.5932642487046635}, "geometry": {"type": "Point", "coordinates": [-93.8256, 32.446602]}}, {"type": "Feature", "properties": {"departure": "SIT", "City name_x": "Sitka", "Country name_y": "United States", "mean_arr_delay": -3.225806451612903}, "geometry": {"type": "Point", "coordinates": [-135.36199950000002, 57.04710007]}}, {"type": "Feature", "properties": {"departure": "SJC", "City name_x": "San Jose", "Country name_y": "United States", "mean_arr_delay": -9.22586439155815}, "geometry": {"type": "Point", "coordinates": [-121.929001, 37.362598]}}, {"type": "Feature", "properties": {"departure": "SJT", "City name_x": "San Angelo", "Country name_y": "United States", "mean_arr_delay": 5.701612903225806}, "geometry": {"type": "Point", "coordinates": [-100.4960022, 31.35770035]}}, {"type": "Feature", "properties": {"departure": "SJU", "City name_x": "San Juan", "Country name_y": "Puerto Rico", "mean_arr_delay": 4.09689557855127}, "geometry": {"type": "Point", "coordinates": [-66.00180054, 18.43939972]}}, {"type": "Feature", "properties": {"departure": "SLC", "City name_x": "Salt Lake City", "Country name_y": "United States", "mean_arr_delay": 3.9532635888105525}, "geometry": {"type": "Point", "coordinates": [-111.97799679999999, 40.78839874]}}, {"type": "Feature", "properties": {"departure": "SLN", "City name_x": "Salina", "Country name_y": "United States", "mean_arr_delay": -12.584905660377359}, "geometry": {"type": "Point", "coordinates": [-97.65219879, 38.79100037]}}, {"type": "Feature", "properties": {"departure": "SMF", "City name_x": "Sacramento", "Country name_y": "United States", "mean_arr_delay": -2.1879837817913748}, "geometry": {"type": "Point", "coordinates": [-121.5910034, 38.69540024]}}, {"type": "Feature", "properties": {"departure": "SMX", "City name_x": "Santa Maria", "Country name_y": "United States", "mean_arr_delay": 7.428571428571429}, "geometry": {"type": "Point", "coordinates": [-120.4570007, 34.89889908]}}, {"type": "Feature", "properties": {"departure": "SNA", "City name_x": "Santa Ana", "Country name_y": "United States", "mean_arr_delay": -6.108433734939759}, "geometry": {"type": "Point", "coordinates": [-117.86799620000001, 33.67570114]}}, {"type": "Feature", "properties": {"departure": "SPI", "City name_x": "Springfield", "Country name_y": "United States", "mean_arr_delay": -5.282051282051282}, "geometry": {"type": "Point", "coordinates": [-89.67790222, 39.84410095]}}, {"type": "Feature", "properties": {"departure": "SPN", "City name_x": "Saipan", "Country name_y": "Northern Mariana Islands", "mean_arr_delay": -14.538461538461538}, "geometry": {"type": "Point", "coordinates": [145.729004, 15.119000000000002]}}, {"type": "Feature", "properties": {"departure": "SPS", "City name_x": "Wichita Falls", "Country name_y": "United States", "mean_arr_delay": -2.1294117647058823}, "geometry": {"type": "Point", "coordinates": [-98.49189799999999, 33.9888]}}, {"type": "Feature", "properties": {"departure": "SRQ", "City name_x": "Sarasota", "Country name_y": "United States", "mean_arr_delay": 4.004329004329004}, "geometry": {"type": "Point", "coordinates": [-82.55439758, 27.39539909]}}, {"type": "Feature", "properties": {"departure": "STC", "City name_x": "Saint Cloud", "Country name_y": "United States", "mean_arr_delay": -5.076923076923077}, "geometry": {"type": "Point", "coordinates": [-94.05989838, 45.54660034]}}, {"type": "Feature", "properties": {"departure": "STL", "City name_x": "St Louis", "Country name_y": "United States", "mean_arr_delay": -6.750718161506543}, "geometry": {"type": "Point", "coordinates": [-90.370003, 38.748697]}}, {"type": "Feature", "properties": {"departure": "STS", "City name_x": "Santa Rosa", "Country name_y": "United States", "mean_arr_delay": -0.004347826086956522}, "geometry": {"type": "Point", "coordinates": [-122.8130035, 38.50899887]}}, {"type": "Feature", "properties": {"departure": "STT", "City name_x": "St Thomas Island", "Country name_y": "Virgin Islands", "mean_arr_delay": 5.4823788546255505}, "geometry": {"type": "Point", "coordinates": [-64.9733963, 18.33729935]}}, {"type": "Feature", "properties": {"departure": "STX", "City name_x": "St Croix Island", "Country name_y": "Virgin Islands", "mean_arr_delay": -3.0}, "geometry": {"type": "Point", "coordinates": [-64.79859924, 17.70190048]}}, {"type": "Feature", "properties": {"departure": "SUN", "City name_x": "Sun Valley", "Country name_y": "United States", "mean_arr_delay": 9.65}, "geometry": {"type": "Point", "coordinates": [-114.2959976, 43.50439835]}}, {"type": "Feature", "properties": {"departure": "SUX", "City name_x": "Sioux City", "Country name_y": "United States", "mean_arr_delay": -1.7543859649122806}, "geometry": {"type": "Point", "coordinates": [-96.38439941, 42.40259933]}}, {"type": "Feature", "properties": {"departure": "SWF", "City name_x": "Newburgh", "Country name_y": "United States", "mean_arr_delay": -22.73076923076923}, "geometry": {"type": "Point", "coordinates": [-74.10479736, 41.504100799999996]}}, {"type": "Feature", "properties": {"departure": "SWO", "City name_x": "Stillwater", "Country name_y": "United States", "mean_arr_delay": 12.317073170731707}, "geometry": {"type": "Point", "coordinates": [-97.08570099, 36.16120148]}}, {"type": "Feature", "properties": {"departure": "SYR", "City name_x": "Syracuse", "Country name_y": "United States", "mean_arr_delay": -3.7022653721682848}, "geometry": {"type": "Point", "coordinates": [-76.10630035, 43.11119843]}}, {"type": "Feature", "properties": {"departure": "TLH", "City name_x": "Tallahassee", "Country name_y": "United States", "mean_arr_delay": -2.4395604395604398}, "geometry": {"type": "Point", "coordinates": [-84.35030365, 30.39649963]}}, {"type": "Feature", "properties": {"departure": "TOL", "City name_x": "Toledo", "Country name_y": "United States", "mean_arr_delay": -0.8813559322033898}, "geometry": {"type": "Point", "coordinates": [-83.80780029, 41.58679962]}}, {"type": "Feature", "properties": {"departure": "TPA", "City name_x": "Tampa", "Country name_y": "United States", "mean_arr_delay": -2.9874450721908348}, "geometry": {"type": "Point", "coordinates": [-82.53320313, 27.97550011]}}, {"type": "Feature", "properties": {"departure": "TRI", "City name_x": "Johnson City", "Country name_y": "United States", "mean_arr_delay": -2.4417670682730925}, "geometry": {"type": "Point", "coordinates": [-82.40740100000001, 36.475201]}}, {"type": "Feature", "properties": {"departure": "TTN", "City name_x": "Philadelphia", "Country name_y": "United States", "mean_arr_delay": -0.42857142857142855}, "geometry": {"type": "Point", "coordinates": [-74.81349945, 40.27669907]}}, {"type": "Feature", "properties": {"departure": "TUL", "City name_x": "Tulsa", "Country name_y": "United States", "mean_arr_delay": 2.1997792494481234}, "geometry": {"type": "Point", "coordinates": [-95.88809967, 36.19839859]}}, {"type": "Feature", "properties": {"departure": "TUS", "City name_x": "Tucson", "Country name_y": "United States", "mean_arr_delay": -2.569811320754717}, "geometry": {"type": "Point", "coordinates": [-110.9410019, 32.11610031]}}, {"type": "Feature", "properties": {"departure": "TVC", "City name_x": "Traverse City", "Country name_y": "United States", "mean_arr_delay": -3.6545454545454548}, "geometry": {"type": "Point", "coordinates": [-85.5821991, 44.74140167]}}, {"type": "Feature", "properties": {"departure": "TWF", "City name_x": "Twin Falls", "Country name_y": "United States", "mean_arr_delay": -6.92}, "geometry": {"type": "Point", "coordinates": [-114.487999, 42.4818]}}, {"type": "Feature", "properties": {"departure": "TXK", "City name_x": "Texarkana", "Country name_y": "United States", "mean_arr_delay": 2.130952380952381}, "geometry": {"type": "Point", "coordinates": [-93.99099731, 33.45370102]}}, {"type": "Feature", "properties": {"departure": "TYR", "City name_x": "Tyler", "Country name_y": "United States", "mean_arr_delay": 8.019047619047619}, "geometry": {"type": "Point", "coordinates": [-95.40239716, 32.35409927]}}, {"type": "Feature", "properties": {"departure": "TYS", "City name_x": "Knoxville", "Country name_y": "United States", "mean_arr_delay": -0.13015873015873017}, "geometry": {"type": "Point", "coordinates": [-83.99400329999999, 35.81100082]}}, {"type": "Feature", "properties": {"departure": "USA", "City name_x": NaN, "Country name_y": NaN, "mean_arr_delay": -3.7901234567901234}, "geometry": {"type": "Point", "coordinates": [NaN, NaN]}}, {"type": "Feature", "properties": {"departure": "VCT", "City name_x": "Victoria", "Country name_y": "United States", "mean_arr_delay": -2.811320754716981}, "geometry": {"type": "Point", "coordinates": [-96.91850281, 28.8526001]}}, {"type": "Feature", "properties": {"departure": "VEL", "City name_x": "Vernal", "Country name_y": "United States", "mean_arr_delay": 9.528301886792454}, "geometry": {"type": "Point", "coordinates": [-109.5100021, 40.4408989]}}, {"type": "Feature", "properties": {"departure": "VLD", "City name_x": "Valdosta", "Country name_y": "United States", "mean_arr_delay": -5.043956043956044}, "geometry": {"type": "Point", "coordinates": [-83.27670288, 30.78249931]}}, {"type": "Feature", "properties": {"departure": "VPS", "City name_x": "Valparaiso", "Country name_y": "United States", "mean_arr_delay": -5.050243111831443}, "geometry": {"type": "Point", "coordinates": [-86.525398, 30.4832]}}, {"type": "Feature", "properties": {"departure": "WRG", "City name_x": "Wrangell", "Country name_y": "United States", "mean_arr_delay": -3.0166666666666666}, "geometry": {"type": "Point", "coordinates": [-132.36999509999998, 56.48429871]}}, {"type": "Feature", "properties": {"departure": "XNA", "City name_x": "Fayetteville", "Country name_y": "United States", "mean_arr_delay": 3.6424778761061947}, "geometry": {"type": "Point", "coordinates": [-94.30680100000001, 36.281898]}}, {"type": "Feature", "properties": {"departure": "XWA", "City name_x": NaN, "Country name_y": NaN, "mean_arr_delay": 2.0526315789473686}, "geometry": {"type": "Point", "coordinates": [NaN, NaN]}}, {"type": "Feature", "properties": {"departure": "YAK", "City name_x": "Yakutat", "Country name_y": "United States", "mean_arr_delay": -0.25}, "geometry": {"type": "Point", "coordinates": [-139.66000369999998, 59.50329971]}}, {"type": "Feature", "properties": {"departure": "YKM", "City name_x": "Yakima", "Country name_y": "United States", "mean_arr_delay": -6.612903225806452}, "geometry": {"type": "Point", "coordinates": [-120.5439987, 46.56819916]}}, {"type": "Feature", "properties": {"departure": "YUM", "City name_x": "Yuma", "Country name_y": "United States", "mean_arr_delay": 5.019354838709678}, "geometry": {"type": "Point", "coordinates": [-114.6060028, 32.65660095]}}]}